fid,SAMNumber,Name,Period,SiteType,Report,lon,lat
"1",CN395     ,Nant y Gledrydd Standing Stone                                                                                                                        ,Prehistoric,Standing Stone,http://cadwpublic-api.azurewebsites.net/reports/sam/FullReport?lang=en&id=1,"-4.5388858222715","52.8987584624998"
"2",ME249     ,Medieval Ecclesiastical Structure SE of Ty'n y Coed Cottage                                                                                           ,Medieval,Chapel,http://cadwpublic-api.azurewebsites.net/reports/sam/FullReport?lang=en&id=2,"-4.0882050228561","52.8265188364301"
"3",PE515     ,Parc Castell Round Barrow                                                                                                                             ,Prehistoric,Round Barrow,http://cadwpublic-api.azurewebsites.net/reports/sam/FullReport?lang=en&id=3,"-4.87903544136799","51.9083988422739"
"4",PE516     ,Mynydd Castlebythe Round Barrows                                                                                                                      ,Prehistoric,Round Barrow,http://cadwpublic-api.azurewebsites.net/reports/sam/FullReport?lang=en&id=4,"-4.86907551438786","51.9302972038332"
"5",PE524     ,Round Barrow 100m E of Thornbush                                                                                                                      ,Prehistoric,Round Barrow,http://cadwpublic-api.azurewebsites.net/reports/sam/FullReport?lang=en&id=5,"-5.0258109744909","51.8546768798547"
"6",ME253     ,Carnedd y Filiast Cairn                                                                                                                               ,Prehistoric,Round Cairn,http://cadwpublic-api.azurewebsites.net/reports/sam/FullReport?lang=en&id=6,"-3.68283934746922","52.9867994102768"
"7",CD210     ,Round Cairns c. 400m SE of Lan Fawr                                                                                                                   ,Prehistoric,Round Cairn,http://cadwpublic-api.azurewebsites.net/reports/sam/FullReport?lang=en&id=7,"-3.90952562763199","52.1310801356539"
"8",BR353     ,Banwen Gwys Round Cairns                                                                                                                              ,Prehistoric,Round Cairn,http://cadwpublic-api.azurewebsites.net/reports/sam/FullReport?lang=en&id=8,"-3.74640137752024","51.8508630874118"
"9",CD212     ,Blaenannerch Round Barrow                                                                                                                             ,Prehistoric,Round Barrow,http://cadwpublic-api.azurewebsites.net/reports/sam/FullReport?lang=en&id=9,"-4.55765653631367","52.111432959919"
"10",PE502     ,"Gellifawr, Standing Stone 70m SW of                                                                                                                   ",Prehistoric,Standing Stone,http://cadwpublic-api.azurewebsites.net/reports/sam/FullReport?lang=en&id=10,"-4.82364021363165","51.9745756232504"
"11",RD157     ,Medieval Settlement on Penybont Common                                                                                                                ,Medieval,Deserted Rural Settlement,http://cadwpublic-api.azurewebsites.net/reports/sam/FullReport?lang=en&id=11,"-3.28087041254898","52.2690707365839"
"12",RD158     ,Pant y Rhiw Medieval Settlement                                                                                                                       ,Medieval,Deserted Rural Settlement,http://cadwpublic-api.azurewebsites.net/reports/sam/FullReport?lang=en&id=12,"-3.34665793526544","52.2069444723195"
"13",RD159     ,Bank House Medieval Settlement                                                                                                                        ,Medieval,Deserted Rural Settlement,http://cadwpublic-api.azurewebsites.net/reports/sam/FullReport?lang=en&id=13,"-3.34200270491494","52.2352968801445"
"14",AN129,Llys Rhosyr,Medieval,Manor,http://cadwpublic-api.azurewebsites.net/reports/sam/FullReport?lang=en&id=14,"-4.36618368410189","53.1620076801872"
"15",GM625,"St. Illtud's Church, Early Medieval Cross, Cross Shafts and Pillar",Early Medieval,Pillar,http://cadwpublic-api.azurewebsites.net/reports/sam/FullReport?lang=en&id=21,"-3.48823615507161","51.4079615213703"
"16",RD192     ,Bronze Age tumulus north of Beili Haulwen                                                                                                             ,Prehistoric,Round Barrow,http://cadwpublic-api.azurewebsites.net/reports/sam/FullReport?lang=en&id=111,"-3.47635109402414","52.3599446466818"
"17",MG294     ,Esgair Draenllwyn Round Cairn I                                                                                                                       ,Prehistoric,Round Cairn,http://cadwpublic-api.azurewebsites.net/reports/sam/FullReport?lang=en&id=112,"-3.58426072567447","52.5370740988932"
"18",MG286     ,Trelystan Church House Round Barrows                                                                                                                  ,Prehistoric,Round Barrow,http://cadwpublic-api.azurewebsites.net/reports/sam/FullReport?lang=en&id=113,"-3.09356704784895","52.6369650659794"
"19",DE277     ,Ysgwennant Barrow                                                                                                                                     ,Prehistoric,Round Barrow,http://cadwpublic-api.azurewebsites.net/reports/sam/FullReport?lang=en&id=114,"-3.2051988966537","52.8662767619399"
"20",CM352     ,Troedrhiwhir Mountain ring cairn                                                                                                                      ,Prehistoric,Ring Cairn,http://cadwpublic-api.azurewebsites.net/reports/sam/FullReport?lang=en&id=115,"-3.82799575188947","52.1140033656525"
"21",CD161,Castell Olwen,Prehistoric,Hillfort,http://cadwpublic-api.azurewebsites.net/reports/sam/FullReport?lang=en&id=116,"-4.07533020069788","52.1231711393268"
"22",MG275     ,Carreg Hir Standing Stone                                                                                                                             ,Prehistoric,Standing Stone,http://cadwpublic-api.azurewebsites.net/reports/sam/FullReport?lang=en&id=128,"-3.45567546161551","52.5605596185439"
"23",BR287     ,Cerrig Llwydion Deserted Rural Settlement                                                                                                             ,Post Medieval/Modern,Deserted Rural Settlement,http://cadwpublic-api.azurewebsites.net/reports/sam/FullReport?lang=en&id=129,"-3.6400844387558","52.2474446196333"
"24",MG263     ,Cwm Rhiwiau Stone Circle                                                                                                                              ,Prehistoric,Stone Circle,http://cadwpublic-api.azurewebsites.net/reports/sam/FullReport?lang=en&id=130,"-3.39883097875933","52.8642422296686"
"25",DE253     ,Tyddyn Tudur Enclosure                                                                                                                                ,Prehistoric,Enclosure - Domestic,http://cadwpublic-api.azurewebsites.net/reports/sam/FullReport?lang=en&id=131,"-3.529103003712","53.0337906709558"
"26",DE252     ,Mynydd Rhyd Ddu Enclosure                                                                                                                             ,Prehistoric,Hillfort,http://cadwpublic-api.azurewebsites.net/reports/sam/FullReport?lang=en&id=132,"-3.41042062551359","53.0187179780484"
"27",CN309,Long Hut North of Cwm Farm,Medieval,Rectangular hut,http://cadwpublic-api.azurewebsites.net/reports/sam/FullReport?lang=en&id=133,"-4.33273033167861","52.9887380806468"
"28",CN310,Enclosed Hut Group North West of Cwm Farm,Prehistoric,Enclosed hut circle,http://cadwpublic-api.azurewebsites.net/reports/sam/FullReport?lang=en&id=134,"-4.33376100591356","52.9876679683201"
"29",GM151     ,Standing Stone on Ty'r Coed Farm                                                                                                                      ,Prehistoric,Standing Stone,http://cadwpublic-api.azurewebsites.net/reports/sam/FullReport?lang=en&id=135,"-4.20252878513075","51.6032595333792"
"30",GM223     ,St Madoc's Church cross-incised stones                                                                                                                ,Early Medieval,Cross,http://cadwpublic-api.azurewebsites.net/reports/sam/FullReport?lang=en&id=136,"-4.25639596029151","51.6180232520633"
"31",GM010     ,Weobley Castle,Medieval,Castle,http://cadwpublic-api.azurewebsites.net/reports/sam/FullReport?lang=en&id=137,"-4.19930313474498","51.6127728362536"
"32",GM027     ,Sweyne's Howe chambered cairns                                                                                                                        ,Prehistoric,Chambered Tomb,http://cadwpublic-api.azurewebsites.net/reports/sam/FullReport?lang=en&id=138,"-4.28027161799379","51.5852791031507"
"33",GM376     ,Llanelen Chapel Site                                                                                                                                  ,Medieval,Chapel,http://cadwpublic-api.azurewebsites.net/reports/sam/FullReport?lang=en&id=139,"-4.15176629521649","51.6193688901631"
"34",FL134     ,Round Barrow 450m E of Penbedw Hall                                                                                                                   ,Prehistoric,Round Barrow,http://cadwpublic-api.azurewebsites.net/reports/sam/FullReport?lang=en&id=140,"-3.2440516780829","53.2043418105415"
"35",GM396,"Canal Aqueduct over the River Twrch, Ystalyfera",Post Medieval/Modern,Aqueduct,http://cadwpublic-api.azurewebsites.net/reports/sam/FullReport?lang=en&id=141,"-3.7799054774216","51.7683425176115"
"36",GM046     ,Loughor Castle,Medieval,Castle,http://cadwpublic-api.azurewebsites.net/reports/sam/FullReport?lang=en&id=142,"-4.07714033783332","51.6622171259826"
"37",GM423     ,Remains of Venallt Ironworks                                                                                                                          ,Post Medieval/Modern,Ironworks,http://cadwpublic-api.azurewebsites.net/reports/sam/FullReport?lang=en&id=143,"-3.64593720585946","51.7319383392433"
"38",GM410     ,Remains of Astronomical Observatory at Penllergaer                                                                                                    ,Post Medieval/Modern,Observatory,http://cadwpublic-api.azurewebsites.net/reports/sam/FullReport?lang=en&id=144,"-3.99334065508174","51.6736982382996"
"39",CD033     ,Pen y Ffrwd-Llwyd Camp                                                                                                                                ,Prehistoric,Hillfort,http://cadwpublic-api.azurewebsites.net/reports/sam/FullReport?lang=en&id=145,"-3.89429607969025","52.3019593167622"
"40",GM199,Garn Goch Round Barrow,Prehistoric,Round Barrow,http://cadwpublic-api.azurewebsites.net/reports/sam/FullReport?lang=en&id=146,"-4.01759072959202","51.6640809437201"
"41",GM342,Standing Stones 300m W of Cefncelfi,Prehistoric,Standing Stone,http://cadwpublic-api.azurewebsites.net/reports/sam/FullReport?lang=en&id=147,"-3.8225726304479","51.7123769442717"
"42",DE118     ,Ffrith-Uchaf Round Cairn                                                                                                                              ,Prehistoric,Round Cairn,http://cadwpublic-api.azurewebsites.net/reports/sam/FullReport?lang=en&id=148,"-3.70326594174094","53.1247981951796"
"43",PE047,Mesur-y-Dorth Cross-Incised Stone,Early Medieval,Cross-marked stone,http://cadwpublic-api.azurewebsites.net/reports/sam/FullReport?lang=en&id=149,"-5.14561656476448","51.9323668037383"
"44",PE172     ,Castell Mawr                                                                                                                                          ,Prehistoric,Hillfort,http://cadwpublic-api.azurewebsites.net/reports/sam/FullReport?lang=en&id=150,"-4.74240126459391","52.0063949583868"
"45",PE171     ,Castell Eglwyswrw                                                                                                                                     ,Medieval,Motte and Bailey,http://cadwpublic-api.azurewebsites.net/reports/sam/FullReport?lang=en&id=151,"-4.71324713529374","52.012713168612"
"46",PE160,Castell Nanhyfer,Medieval,Motte and Bailey,http://cadwpublic-api.azurewebsites.net/reports/sam/FullReport?lang=en&id=152,"-4.79701122660671","52.0266667327854"
"47",PE295     ,Castell Heinif                                                                                                                                        ,Prehistoric,Promontory Fort - coastal,http://cadwpublic-api.azurewebsites.net/reports/sam/FullReport?lang=en&id=153,"-5.30815183162264","51.8741566499699"
"48",PE372     ,Penparke Standing Stone                                                                                                                               ,Prehistoric,Standing Stone,http://cadwpublic-api.azurewebsites.net/reports/sam/FullReport?lang=en&id=154,"-4.78233860894824","51.9845289928842"
"49",MG029     ,Bryngwyn Wood Camp                                                                                                                                    ,Prehistoric,Hillfort,http://cadwpublic-api.azurewebsites.net/reports/sam/FullReport?lang=en&id=155,"-3.21092975045605","52.7518324505931"
"50",MG141     ,Black Bank Camp                                                                                                                                       ,Prehistoric,Enclosure,http://cadwpublic-api.azurewebsites.net/reports/sam/FullReport?lang=en&id=156,"-3.0900601372383","52.6610779160925"
"51",MG132     ,Y Golfa Camp                                                                                                                                          ,Prehistoric,Enclosure,http://cadwpublic-api.azurewebsites.net/reports/sam/FullReport?lang=en&id=157,"-3.2162058751657","52.6534506965952"
"52",MG131     ,Tan y Clawdd Camp                                                                                                                                     ,Prehistoric,Hillfort,http://cadwpublic-api.azurewebsites.net/reports/sam/FullReport?lang=en&id=158,"-3.20011675639704","52.6626857826947"
"53",MG216,"Roman Supply Depot, Llansantffraid ym Mechain",Roman,Enclosure,http://cadwpublic-api.azurewebsites.net/reports/sam/FullReport?lang=en&id=159,"-3.14560673220132","52.7777755367676"
"54",MG214     ,Carreghofa Castle                                                                                                                                     ,Medieval,Ringwork,http://cadwpublic-api.azurewebsites.net/reports/sam/FullReport?lang=en&id=160,"-3.10675378277996","52.7921344346005"
"55",MG213     ,Knaps Barrows                                                                                                                                         ,Prehistoric,Round Barrow,http://cadwpublic-api.azurewebsites.net/reports/sam/FullReport?lang=en&id=161,"-3.0465949984146","52.6770259174478"
"56",MG212,Powis Castle Park Mound,Post Medieval/Modern,Earthwork (unclassified),http://cadwpublic-api.azurewebsites.net/reports/sam/FullReport?lang=en&id=162,"-3.18109693395111","52.6437649682184"
"57",GM075     ,Llancarfan Monastery (Site of)                                                                                                                        ,Early Medieval,Monastery,http://cadwpublic-api.azurewebsites.net/reports/sam/FullReport?lang=en&id=163,"-3.3653555547772","51.4214599291113"
"58",RD152,New Radnor: Interior of Medieval Town,Medieval,House Platform,http://cadwpublic-api.azurewebsites.net/reports/sam/FullReport?lang=en&id=165,"-3.15747324045571","52.2402193172489"
"59",AN130,Felin Wen Tide Mill,Post Medieval/Modern,Tide Mill,http://cadwpublic-api.azurewebsites.net/reports/sam/FullReport?lang=en&id=166,"-4.55625609292575","53.2643598826223"
"60",BR229     ,Dinas Silica Mine                                                                                                                                     ,Post Medieval/Modern,Tramroad,http://cadwpublic-api.azurewebsites.net/reports/sam/FullReport?lang=en&id=167,"-3.57045757765155","51.7604137874252"
"61",GM210,Medieval Cross in Churchyard,Medieval,Cross,http://cadwpublic-api.azurewebsites.net/reports/sam/FullReport?lang=en&id=168,"-3.5029025206029","51.48961700515"
"62",GM211,Llangan Celtic Cross,Early Medieval,Cross,http://cadwpublic-api.azurewebsites.net/reports/sam/FullReport?lang=en&id=169,"-3.50306015112812","51.489745463403"
"63",GM224,Cross in St Mary's Churchyard,Medieval,Cross,http://cadwpublic-api.azurewebsites.net/reports/sam/FullReport?lang=en&id=170,"-3.50283745024454","51.5030312057427"
"64",GM337,"Llandough Castle, Remains of Hall",Medieval,Castle,http://cadwpublic-api.azurewebsites.net/reports/sam/FullReport?lang=en&id=171,"-3.44758507446357","51.4469740425154"
"65",GM377,Ringwork & Bailey at Gelligarn,Medieval,Ringwork and bailey,http://cadwpublic-api.azurewebsites.net/reports/sam/FullReport?lang=en&id=172,"-3.49880043229146","51.4975468230458"
"66",GM084     ,Mynydd y Gaer                                                                                                                                         ,Prehistoric,Hillfort,http://cadwpublic-api.azurewebsites.net/reports/sam/FullReport?lang=en&id=173,"-3.48209133352707","51.5543811900814"
"67",BR077     ,Castle Mound near Swan Hotel                                                                                                                          ,Medieval,Motte,http://cadwpublic-api.azurewebsites.net/reports/sam/FullReport?lang=en&id=174,"-3.12992173457757","52.0726560033941"
"68",BR117     ,Tretower Court                                                                                                                                        ,Medieval,House (domestic),http://cadwpublic-api.azurewebsites.net/reports/sam/FullReport?lang=en&id=175,"-3.18456836050736","51.8833159653433"
"69",BR131     ,Fforest Castle Mound                                                                                                                                  ,Medieval,Motte,http://cadwpublic-api.azurewebsites.net/reports/sam/FullReport?lang=en&id=176,"-3.58091624301003","52.155886258919"
"70",GM001,Old Beaupre Castle,Medieval,House (domestic),http://cadwpublic-api.azurewebsites.net/reports/sam/FullReport?lang=en&id=177,"-3.42858430685555","51.4392234681904"
"71",CN168,Cae Metta Hut Group,Prehistoric,Enclosed hut circle,http://cadwpublic-api.azurewebsites.net/reports/sam/FullReport?lang=en&id=178,"-4.19114151941836","53.1617277350109"
"72",PE480     ,Enclosure 200m SE of Solva Village                                                                                                                    ,Prehistoric,Enclosure,http://cadwpublic-api.azurewebsites.net/reports/sam/FullReport?lang=en&id=179,"-5.18502830586075","51.8744291160924"
"73",PE481     ,Enclosure in Tycanol Wood                                                                                                                             ,Prehistoric,Promontory Fort - coastal,http://cadwpublic-api.azurewebsites.net/reports/sam/FullReport?lang=en&id=180,"-4.78230430241461","51.9963665475593"
"74",CN061     ,Bont-Newydd                                                                                                                                           ,Post Medieval,Bridge,http://cadwpublic-api.azurewebsites.net/reports/sam/FullReport?lang=en&id=181,"-4.00493508231342","53.2282287809274"
"75",CN073,Pier Camp,Unknown,Earthwork (unclassified),http://cadwpublic-api.azurewebsites.net/reports/sam/FullReport?lang=en&id=182,"-4.12774470999537","53.233888756787"
"76",CN200,Cefn Mawr Hut Group,Prehistoric,Hut Circle Settlement,http://cadwpublic-api.azurewebsites.net/reports/sam/FullReport?lang=en&id=183,"-4.19537941172406","53.1640502658673"
"77",CN198     ,"Vivian Slate Quarry, Inclines, Walia & associated structures                                                                                          ",Post Medieval/Modern,Quarry,http://cadwpublic-api.azurewebsites.net/reports/sam/FullReport?lang=en&id=184,"-4.11404504453059","53.1243895381819"
"78",AN095,Hut Group N of Glan'r Afon,Prehistoric,Unenclosed hut circle,http://cadwpublic-api.azurewebsites.net/reports/sam/FullReport?lang=en&id=185,"-4.25352188799143","53.3448243712511"
"79",CN123,Hut Group W of Foel Dduarth,Prehistoric,Enclosed hut circle,http://cadwpublic-api.azurewebsites.net/reports/sam/FullReport?lang=en&id=186,"-3.98290835173627","53.2250186676299"
"80",GM378     ,Middleton Moated Site                                                                                                                                 ,Medieval,Moated Site,http://cadwpublic-api.azurewebsites.net/reports/sam/FullReport?lang=en&id=187,"-3.22295349109186","51.4102279918494"
"81",GM251     ,Walterston ringwork                                                                                                                                   ,Medieval,Enclosure,http://cadwpublic-api.azurewebsites.net/reports/sam/FullReport?lang=en&id=188,"-3.3417164946773","51.432184786874"
"82",GM282,"Medieval House Site, Llantrithyd",Medieval,Enclosure - Domestic,http://cadwpublic-api.azurewebsites.net/reports/sam/FullReport?lang=en&id=189,"-3.37496434771519","51.4453433338724"
"83",GM293     ,Llanvithyn Camp                                                                                                                                       ,Prehistoric,Hillfort,http://cadwpublic-api.azurewebsites.net/reports/sam/FullReport?lang=en&id=190,"-3.36148317489848","51.4373634418296"
"84",GM257,Llantrithyd Camp,Prehistoric,Enclosure,http://cadwpublic-api.azurewebsites.net/reports/sam/FullReport?lang=en&id=191,"-3.38491039041233","51.4494345375677"
"85",BR227     ,Two Cairns on Traeth Mawr                                                                                                                             ,Prehistoric,Cairn,http://cadwpublic-api.azurewebsites.net/reports/sam/FullReport?lang=en&id=192,"-3.50534871918285","51.9204272186923"
"86",DE010     ,Moel-y-Gaer Camp                                                                                                                                      ,Prehistoric,Hillfort,http://cadwpublic-api.azurewebsites.net/reports/sam/FullReport?lang=en&id=193,"-3.27422578087016","53.1460719193492"
"87",FL004     ,Castell Rhuddlan,Medieval,Castle,http://cadwpublic-api.azurewebsites.net/reports/sam/FullReport?lang=en&id=194,"-3.46503374132227","53.2891584263457"
"88",CN240     ,"Huts and Enclosures, Cwm Llefrith                                                                                                                     ",Prehistoric,Hut Circle Settlement,http://cadwpublic-api.azurewebsites.net/reports/sam/FullReport?lang=en&id=195,"-4.16216742183799","52.9992368067493"
"89",CD160     ,Burnt Mound 230m NE of Ffos                                                                                                                           ,Prehistoric,Burnt Mound,http://cadwpublic-api.azurewebsites.net/reports/sam/FullReport?lang=en&id=196,"-3.92316594434554","52.2870454444239"
"90",CN234,"Hut Circle, Bryniau Poethion, Great Orme",Prehistoric,Unenclosed hut circle,http://cadwpublic-api.azurewebsites.net/reports/sam/FullReport?lang=en&id=197,"-3.84961370089619","53.3327728913792"
"91",FL079     ,Wat's Dyke: Section SE of Meadow Mills                                                                                                                ,Early Medieval,Linear Earthwork,http://cadwpublic-api.azurewebsites.net/reports/sam/FullReport?lang=en&id=198,"-3.21486079672742","53.2811808118581"
"92",FL029     ,Holywell Castle Mound                                                                                                                                 ,Medieval,Motte,http://cadwpublic-api.azurewebsites.net/reports/sam/FullReport?lang=en&id=199,"-3.2224971632932","53.2773652003701"
"93",FL180     ,Kelsterton Brewery                                                                                                                                    ,Post Medieval/Modern,Industrial building,http://cadwpublic-api.azurewebsites.net/reports/sam/FullReport?lang=en&id=200,"-3.08364461152278","53.2274046865301"
"94",DE120,Mynydd Bach Camp,Prehistoric,Hillfort,http://cadwpublic-api.azurewebsites.net/reports/sam/FullReport?lang=en&id=201,"-3.26226520753539","52.8972112479031"
"95",CN130     ,Cerrig Pryfaid Stone Circle                                                                                                                           ,Prehistoric,Stone Circle,http://cadwpublic-api.azurewebsites.net/reports/sam/FullReport?lang=en&id=202,"-3.9119225483741","53.2237090478509"
"96",CN072     ,Gwern y Plas Ancient Village                                                                                                                          ,Prehistoric,Unenclosed hut circle settlement,http://cadwpublic-api.azurewebsites.net/reports/sam/FullReport?lang=en&id=203,"-3.96986494519718","53.2541930609688"
"97",DE046,Mwdwl Eithin Round Barrows,Prehistoric,Round Barrow,http://cadwpublic-api.azurewebsites.net/reports/sam/FullReport?lang=en&id=204,"-3.75449819759858","53.1977179567475"
"98",CN147     ,"Site of Medieval King's Hall and Wardrobe, Rosehill Street                                                                                            ",Medieval,Building (Unclassified),http://cadwpublic-api.azurewebsites.net/reports/sam/FullReport?lang=en&id=205,"-3.82760098777101","53.2800375655629"
"99",CN127     ,Hut Groups N of Cerrig y Dinas                                                                                                                        ,Prehistoric,Enclosed hut circle,http://cadwpublic-api.azurewebsites.net/reports/sam/FullReport?lang=en&id=206,"-3.86970613128522","53.2496376993946"
"100",DE025,Llanrwst Bridge,Post Medieval/Modern,Bridge,http://cadwpublic-api.azurewebsites.net/reports/sam/FullReport?lang=en&id=207,"-3.79757580316455","53.1370105350724"
"101",DE125     ,Hendre-Waelod Burial Chamber                                                                                                                          ,Prehistoric,Chambered Long Cairn,http://cadwpublic-api.azurewebsites.net/reports/sam/FullReport?lang=en&id=208,"-3.81106134110681","53.2560047750735"
"102",CN182     ,"Six Inscribed Stones in St Tudclud's Church, Penmachno                                                                                                ",Early Medieval,Inscribed Stone,http://cadwpublic-api.azurewebsites.net/reports/sam/FullReport?lang=en&id=209,"-3.80620960441849","53.0388681727313"
"103",CN190     ,Ogof Pant-y-Wennol                                                                                                                                    ,Prehistoric,Cave,http://cadwpublic-api.azurewebsites.net/reports/sam/FullReport?lang=en&id=210,"-3.7906116013495","53.3180368199852"
"104",CN191     ,Kendricks Cave & Upper Kendricks Cave                                                                                                                 ,Prehistoric,Cave,http://cadwpublic-api.azurewebsites.net/reports/sam/FullReport?lang=en&id=211,"-3.83358035938701","53.3282888453491"
"105",CN033     ,Pont Rhyd-Llanfair                                                                                                                                    ,Post Medieval/Modern,Bridge,http://cadwpublic-api.azurewebsites.net/reports/sam/FullReport?lang=en&id=212,"-3.75033570784521","53.0563238455251"
"106",CN039,Pen y Dinas Camp,Iron Age,Hillfort,http://cadwpublic-api.azurewebsites.net/reports/sam/FullReport?lang=en&id=213,"-3.83490282827388","53.3296709945057"
"107",CN041,Caer Oleu Camp,Prehistoric,Hillfort,http://cadwpublic-api.azurewebsites.net/reports/sam/FullReport?lang=en&id=214,"-3.80747758443791","53.1824475798676"
"108",CM077     ,Talley Mound and Bailey Castle                                                                                                                        ,Medieval,Motte and Bailey,http://cadwpublic-api.azurewebsites.net/reports/sam/FullReport?lang=en&id=215,"-3.99412822676032","51.9818768463172"
"109",ME053,Castell y Gaer,Prehistoric,Hillfort,http://cadwpublic-api.azurewebsites.net/reports/sam/FullReport?lang=en&id=216,"-4.08320820083989","52.6606341793177"
"110",CN099     ,Fedw Deg Medieval House,Post Medieval/Modern,House (domestic),http://cadwpublic-api.azurewebsites.net/reports/sam/FullReport?lang=en&id=217,"-3.80857039977899","53.063004983441"
"111",BR016     ,Gwernvale chambered cairn                                                                                                                             ,Prehistoric,Chambered long barrow,http://cadwpublic-api.azurewebsites.net/reports/sam/FullReport?lang=en&id=218,"-3.14709053016468","51.8659932904808"
"112",MM008     ,Monnow Bridge                                                                                                                                         ,Medieval,Bridge,http://cadwpublic-api.azurewebsites.net/reports/sam/FullReport?lang=en&id=219,"-2.72004822934705","51.8089737935214"
"113",GM247     ,St Rogue's Chapel                                                                                                                                     ,Medieval,Chapel,http://cadwpublic-api.azurewebsites.net/reports/sam/FullReport?lang=en&id=220,"-3.60206932515575","51.490750345078"
"114",GM427,Cooking Mound East of Taff Terrace,Prehistoric,Burnt Mound,http://cadwpublic-api.azurewebsites.net/reports/sam/FullReport?lang=en&id=221,"-3.24886236144075","51.5125979411346"
"115",GM013,Llandaff Cathedral Bell Tower,Medieval,Bell Tower,http://cadwpublic-api.azurewebsites.net/reports/sam/FullReport?lang=en&id=222,"-3.2186353606901","51.4953299627605"
"116",GM205,Ely Roman Villa,Roman,Villa,http://cadwpublic-api.azurewebsites.net/reports/sam/FullReport?lang=en&id=223,"-3.22958118980509","51.4776968373559"
"117",GM173,Dominican Friary,Medieval,Friary,http://cadwpublic-api.azurewebsites.net/reports/sam/FullReport?lang=en&id=224,"-3.18534659291181","51.4831859577289"
"118",GM073,"Old Bishop's Palace, Llandaff",Medieval,Bishops Palace,http://cadwpublic-api.azurewebsites.net/reports/sam/FullReport?lang=en&id=225,"-3.21727949181339","51.4945558930959"
"119",GM035     ,"Sully Island, ""Danish"" Fort                                                                                                                           ",Prehistoric,Hillfort,http://cadwpublic-api.azurewebsites.net/reports/sam/FullReport?lang=en&id=226,"-3.19642443972163","51.3956667363217"
"120",MM198     ,Medieval Moated Site 400m N of Undy Church                                                                                                            ,Medieval,Moated Site,http://cadwpublic-api.azurewebsites.net/reports/sam/FullReport?lang=en&id=227,"-2.81014199681813","51.5824578111784"
"121",PE211     ,Caerau                                                                                                                                                ,Prehistoric,Enclosure,http://cadwpublic-api.azurewebsites.net/reports/sam/FullReport?lang=en&id=228,"-4.7386551042036","52.0756477922013"
"122",PE013,St Non's Chapel,Early Medieval,Chapel,http://cadwpublic-api.azurewebsites.net/reports/sam/FullReport?lang=en&id=229,"-5.26884898981686","51.8722110011983"
"123",PE108,Parc y Castell Mound and Bailey Castle,Medieval,Ringwork and bailey,http://cadwpublic-api.azurewebsites.net/reports/sam/FullReport?lang=en&id=230,"-5.27854797306733","51.8796215760551"
"124",PE081,Castell Hendre-Wen,Prehistoric,Enclosure,http://cadwpublic-api.azurewebsites.net/reports/sam/FullReport?lang=en&id=231,"-5.02782640468058","51.9628174511408"
"125",PE080     ,Castell Poeth                                                                                                                                         ,Prehistoric,Enclosure,http://cadwpublic-api.azurewebsites.net/reports/sam/FullReport?lang=en&id=232,"-5.06480541679045","51.9979772417273"
"126",PE259     ,Ffynnon- Druidion Standing Stone                                                                                                                      ,Prehistoric,Standing Stone,http://cadwpublic-api.azurewebsites.net/reports/sam/FullReport?lang=en&id=233,"-5.02876829934839","51.9876769742653"
"127",PE032     ,Garn Gilfach Burial Chamber                                                                                                                           ,Prehistoric,Chambered Tomb,http://cadwpublic-api.azurewebsites.net/reports/sam/FullReport?lang=en&id=234,"-5.04834591995488","52.009834870396"
"128",CM283,Cae Sara Lead Mine,Post Medieval/Modern,Lead Mine,http://cadwpublic-api.azurewebsites.net/reports/sam/FullReport?lang=en&id=235,"-3.8143170692517","51.9328270571883"
"129",CM284     ,Group of Burnt Mounds 300m SSW of Cilcoll Farm                                                                                                        ,Prehistoric,Burnt Mound,http://cadwpublic-api.azurewebsites.net/reports/sam/FullReport?lang=en&id=236,"-3.99616708292473","51.821948047248"
"130",FL185     ,Bretton Hall Moated Site                                                                                                                              ,Medieval,Moated Site,http://cadwpublic-api.azurewebsites.net/reports/sam/FullReport?lang=en&id=237,"-2.9498837905794","53.1668727728853"
"131",GM239     ,Gwersyll                                                                                                                                              ,Prehistoric,Enclosure,http://cadwpublic-api.azurewebsites.net/reports/sam/FullReport?lang=en&id=238,"-3.41018391441078","51.7265514758864"
"132",AN031,Roman Wall Surrounding St Cybi's Churchyard,Roman,Fort,http://cadwpublic-api.azurewebsites.net/reports/sam/FullReport?lang=en&id=239,"-4.63234514537585","53.3114628103461"
"133",CM225     ,Stone Circle 200m SW of Cerrig Cynant                                                                                                                 ,Prehistoric,Stone Circle,http://cadwpublic-api.azurewebsites.net/reports/sam/FullReport?lang=en&id=240,"-3.75093900079487","52.0826155618357"
"134",CD001,Strata Florida Abbey,Medieval,Abbey,http://cadwpublic-api.azurewebsites.net/reports/sam/FullReport?lang=en&id=241,"-3.83818499225275","52.2751637034409"
"135",MG229     ,Allt Dolanog Hillfort                                                                                                                                 ,Prehistoric,Hillfort,http://cadwpublic-api.azurewebsites.net/reports/sam/FullReport?lang=en&id=242,"-3.38653489817614","52.7095921627141"
"136",RD003     ,Crug Eryr Mound and Bailey Castle                                                                                                                     ,Medieval,Motte and Bailey,http://cadwpublic-api.azurewebsites.net/reports/sam/FullReport?lang=en&id=243,"-3.23479030263056","52.2254459578962"
"137",MM247,Caerleon Legionary Fortress: Old Vicarage Garden,Roman,Legionary Fortress,http://cadwpublic-api.azurewebsites.net/reports/sam/FullReport?lang=en&id=244,"-2.95618791691015","51.6107637413782"
"138",GM056     ,Danish Camp                                                                                                                                           ,Prehistoric,Enclosure,http://cadwpublic-api.azurewebsites.net/reports/sam/FullReport?lang=en&id=245,"-3.7027519582057","51.5701262479751"
"139",MM239     ,Caerleon Legionary Fortress: Back Garden of No 4 Museum Street                                                                                        ,Roman,Legionary Fortress,http://cadwpublic-api.azurewebsites.net/reports/sam/FullReport?lang=en&id=246,"-2.95454020676203","51.6104209636377"
"140",MM240     ,Caerleon Legionary Fortress: Area behind Caerleon House                                                                                               ,Roman,Legionary Fortress,http://cadwpublic-api.azurewebsites.net/reports/sam/FullReport?lang=en&id=247,"-2.95312793902894","51.608968900409"
"141",MM241,"Caerleon Legionary Fortress: Town Hall Park, High Street",Roman,Legionary Fortress,http://cadwpublic-api.azurewebsites.net/reports/sam/FullReport?lang=en&id=248,"-2.95710428111045","51.6111945305245"
"142",PE279     ,Hanton Round Barrows                                                                                                                                  ,Prehistoric,Round Barrow,http://cadwpublic-api.azurewebsites.net/reports/sam/FullReport?lang=en&id=249,"-4.92425832505201","51.7924798688261"
"143",PE469     ,Linney Deserted Medieval Village                                                                                                                      ,Medieval,Deserted Medieval Village,http://cadwpublic-api.azurewebsites.net/reports/sam/FullReport?lang=en&id=250,"-5.04222919052681","51.6296844597981"
"144",CM019     ,Napps Camp                                                                                                                                            ,Prehistoric,Promontory Fort - coastal,http://cadwpublic-api.azurewebsites.net/reports/sam/FullReport?lang=en&id=251,"-4.56763571888749","51.7392257301264"
"145",AN111,"Parys Mountain: Windmill, Engine House, Precipitation Pits and Great Opencast",Post Medieval/Modern,Tower,http://cadwpublic-api.azurewebsites.net/reports/sam/FullReport?lang=en&id=252,"-4.34350622966554","53.3868007984832"
"146",AN122,Tyddyn Sadler Hut Group,Prehistoric,Enclosed hut circle,http://cadwpublic-api.azurewebsites.net/reports/sam/FullReport?lang=en&id=253,"-4.3821986495915","53.2366670791586"
"147",AN124     ,Pen-y-Fynwent Enclosure                                                                                                                               ,Medieval,Enclosure,http://cadwpublic-api.azurewebsites.net/reports/sam/FullReport?lang=en&id=254,"-4.35608760419385","53.3731718996466"
"148",AN126,Enclosed Hut Group West of Mariandyrys,Prehistoric,Enclosed hut circle,http://cadwpublic-api.azurewebsites.net/reports/sam/FullReport?lang=en&id=255,"-4.10797760899304","53.3094343422396"
"149",AN092     ,Tre-Arddur Hut Group                                                                                                                                  ,Prehistoric,Enclosed hut circle,http://cadwpublic-api.azurewebsites.net/reports/sam/FullReport?lang=en&id=256,"-4.6079035612756","53.2874228344149"
"150",AN094     ,Benllech Megalith: Goosehouse                                                                                                                         ,Prehistoric,Burial Chamber,http://cadwpublic-api.azurewebsites.net/reports/sam/FullReport?lang=en&id=257,"-4.22469666159303","53.3201633320973"
"151",AN096,"North Weir and Smoke Tower, Ynys Gorad Goch",Post Medieval/Modern,Fish Weir,http://cadwpublic-api.azurewebsites.net/reports/sam/FullReport?lang=en&id=258,"-4.18129391482334","53.2186979894939"
"152",AN078     ,Bodewryd Standing Stone                                                                                                                               ,Prehistoric,Standing Stone,http://cadwpublic-api.azurewebsites.net/reports/sam/FullReport?lang=en&id=259,"-4.39779938423305","53.3846582715377"
"153",AN069     ,Maen Addwyn                                                                                                                                           ,Prehistoric,Standing Stone,http://cadwpublic-api.azurewebsites.net/reports/sam/FullReport?lang=en&id=260,"-4.31290084362395","53.3247377877697"
"154",AN048,Dinas Cadnant Hillfort,Prehistoric,Hillfort,http://cadwpublic-api.azurewebsites.net/reports/sam/FullReport?lang=en&id=261,"-4.17116030120268","53.2377766613607"
"155",AN020,Aberlleiniog Castle,Medieval,Motte,http://cadwpublic-api.azurewebsites.net/reports/sam/FullReport?lang=en&id=262,"-4.07724867623128","53.2925544351429"
"156",AN021,Bodfeddan Inscribed Stone,Early Medieval,Inscribed Stone,http://cadwpublic-api.azurewebsites.net/reports/sam/FullReport?lang=en&id=263,"-4.46500729012706","53.2428641721715"
"157",AN023,Din Llugwy Romano-British Village,Prehistoric,Enclosed hut circle,http://cadwpublic-api.azurewebsites.net/reports/sam/FullReport?lang=en&id=264,"-4.25933267288314","53.3507361556028"
"158",AN027     ,Penmon Priory,Medieval,Priory,http://cadwpublic-api.azurewebsites.net/reports/sam/FullReport?lang=en&id=265,"-4.05682760306125","53.3055500813389"
"159",ME142,"Rhosydd Incline, Drumhouse & Tramway",Post Medieval/Modern,Tramway,http://cadwpublic-api.azurewebsites.net/reports/sam/FullReport?lang=en&id=266,"-4.00116938420122","52.9966587116294"
"160",ME130     ,Cefn Clawdd Early Settlement and Fields                                                                                                               ,Prehistoric,Field System,http://cadwpublic-api.azurewebsites.net/reports/sam/FullReport?lang=en&id=267,"-3.95044523421533","52.8850369748846"
"161",ME131     ,Hut Circle 800m West of Moelfryn-Isaf                                                                                                                 ,Prehistoric,Unenclosed hut circle,http://cadwpublic-api.azurewebsites.net/reports/sam/FullReport?lang=en&id=268,"-3.97167227143066","52.9036831514058"
"162",ME132     ,Cwm Moch Settlement                                                                                                                                   ,Medieval,Farmstead,http://cadwpublic-api.azurewebsites.net/reports/sam/FullReport?lang=en&id=269,"-3.98721317172253","52.9069224333527"
"163",ME114     ,Cerrig Arthur Stone Circle                                                                                                                            ,Prehistoric,Stone Circle,http://cadwpublic-api.azurewebsites.net/reports/sam/FullReport?lang=en&id=270,"-4.02869890658396","52.7502421378155"
"164",ME099,Ceunant Egryn Enclosed Settlement,Prehistoric,Enclosed hut circle,http://cadwpublic-api.azurewebsites.net/reports/sam/FullReport?lang=en&id=271,"-4.0682312329","52.7652093279877"
"165",ME101     ,Cyfannedd-Fach Homestead                                                                                                                              ,Medieval,Platform house,http://cadwpublic-api.azurewebsites.net/reports/sam/FullReport?lang=en&id=272,"-4.02573959105493","52.6954959396955"
"166",ME104,Bryn-y-Castell Hillfort,Prehistoric,Hillfort,http://cadwpublic-api.azurewebsites.net/reports/sam/FullReport?lang=en&id=273,"-3.8953768639547","52.9689271281038"
"167",ME078,Tomen y Mur,Roman,Vicus,http://cadwpublic-api.azurewebsites.net/reports/sam/FullReport?lang=en&id=274,"-3.9222279011883","52.9285436801611"
"168",ME062     ,Y Gyrn Round Cairns                                                                                                                                   ,Prehistoric,Round Cairn,http://cadwpublic-api.azurewebsites.net/reports/sam/FullReport?lang=en&id=275,"-4.02231082716985","52.903183171335"
"169",ME063,Cefn Ddwysarn Camp,Prehistoric,Enclosure,http://cadwpublic-api.azurewebsites.net/reports/sam/FullReport?lang=en&id=276,"-3.5384446840739","52.9310588269776"
"170",ME064,Byrllysg promontory fort,Prehistoric,Promontory Fort - inland,http://cadwpublic-api.azurewebsites.net/reports/sam/FullReport?lang=en&id=277,"-4.08392678912159","52.7961663186532"
"171",ME065     ,Bron-y-Foel West Burial Chamber                                                                                                                       ,Prehistoric,Chambered Long Cairn,http://cadwpublic-api.azurewebsites.net/reports/sam/FullReport?lang=en&id=278,"-4.06671083218474","52.8013021612496"
"172",ME052     ,Corwen Churchyard Cross                                                                                                                               ,Medieval,Cross,http://cadwpublic-api.azurewebsites.net/reports/sam/FullReport?lang=en&id=279,"-3.37359010911339","52.9799885766955"
"173",ME029     ,Pont Carrog                                                                                                                                           ,Post Medieval/Modern,Bridge,http://cadwpublic-api.azurewebsites.net/reports/sam/FullReport?lang=en&id=280,"-3.31925643326792","52.9834699640531"
"174",ME012     ,Caer Drewen Camp                                                                                                                                      ,Prehistoric,Hillfort,http://cadwpublic-api.azurewebsites.net/reports/sam/FullReport?lang=en&id=281,"-3.36024185067631","52.9892730681997"
"175",ME013     ,Moel Ty-Uchaf Circles                                                                                                                                 ,Prehistoric,Stone Circle,http://cadwpublic-api.azurewebsites.net/reports/sam/FullReport?lang=en&id=282,"-3.40563243120138","52.9231900907226"
"176",ME016,Tomen y Bala Castle Mound,Medieval,Motte,http://cadwpublic-api.azurewebsites.net/reports/sam/FullReport?lang=en&id=283,"-3.59550947991237","52.9115462825697"
"177",ME018,Caer Gai Roman Site,Roman,Fort,http://cadwpublic-api.azurewebsites.net/reports/sam/FullReport?lang=en&id=284,"-3.66840073431892","52.8688980831806"
"178",CN225,Enclosed Hut Group North East of Cae'r Mynydd,Prehistoric,Enclosed hut circle,http://cadwpublic-api.azurewebsites.net/reports/sam/FullReport?lang=en&id=285,"-4.13246824231685","53.1619023615674"
"179",CN187,"Huts on Mynydd Enlli, Bardsey Island",Prehistoric,Hut Circle Settlement,http://cadwpublic-api.azurewebsites.net/reports/sam/FullReport?lang=en&id=286,"-4.7849704818011","52.7591460377299"
"180",CN208     ,"Pen-yr-Orsedd Quarry, Blondins and Associated Structures                                                                                              ",Post Medieval/Modern,Engine House,http://cadwpublic-api.azurewebsites.net/reports/sam/FullReport?lang=en&id=287,"-4.22732555571402","53.0639706745066"
"181",CN211,Fortified Hut Settlement above Rachub,Prehistoric,Enclosed hut circle settlement,http://cadwpublic-api.azurewebsites.net/reports/sam/FullReport?lang=en&id=288,"-4.05449213289397","53.1904941635464"
"182",CN212     ,Hut Circle Settlement East of Dinas-y-Prif                                                                                                            ,Prehistoric,Enclosed hut circle,http://cadwpublic-api.azurewebsites.net/reports/sam/FullReport?lang=en&id=289,"-4.29518837799681","53.0950742933937"
"183",CN114,Llangwnadl Standing Stone,Prehistoric,Standing Stone,http://cadwpublic-api.azurewebsites.net/reports/sam/FullReport?lang=en&id=290,"-4.66268901716406","52.8603594602832"
"184",CN115,Y Foel Camp,Prehistoric,Hillfort,http://cadwpublic-api.azurewebsites.net/reports/sam/FullReport?lang=en&id=291,"-4.31240277541303","53.0309846660162"
"185",CN087     ,"Inscribed Stone in St Cian's Churchyard, Llangian                                                                                                     ",Early Medieval,Inscribed Stone,http://cadwpublic-api.azurewebsites.net/reports/sam/FullReport?lang=en&id=292,"-4.53133964076811","52.8309641719252"
"186",CN045,Castell Odo,Prehistoric,Hillfort,http://cadwpublic-api.azurewebsites.net/reports/sam/FullReport?lang=en&id=293,"-4.69204986158433","52.8232246078011"
"187",CN015,Castell Cricieth,Medieval,Castle,http://cadwpublic-api.azurewebsites.net/reports/sam/FullReport?lang=en&id=294,"-4.23246786256535","52.915901146804"
"188",CN018     ,Dinas Emrys Camp                                                                                                                                      ,Roman,Hillfort,http://cadwpublic-api.azurewebsites.net/reports/sam/FullReport?lang=en&id=295,"-4.07897472545146","53.0221897659806"
"189",CN019     ,Gesail Gyfarch Inscribed Stone                                                                                                                        ,Early Medieval,Inscribed Stone,http://cadwpublic-api.azurewebsites.net/reports/sam/FullReport?lang=en&id=296,"-4.17455140332978","52.9528502988821"
"190",MM224     ,Pwll Du Village,Post Medieval/Modern,Settlement,http://cadwpublic-api.azurewebsites.net/reports/sam/FullReport?lang=en&id=297,"-3.09607238524855","51.7990925049905"
"191",MM215,"Area of Deserted Medieval Settlement, Skenfrith",Medieval,Deserted Medieval Village,http://cadwpublic-api.azurewebsites.net/reports/sam/FullReport?lang=en&id=298,"-2.79412466859996","51.8786373476883"
"192",MM216     ,British Colliery Pumping Engine House                                                                                                                 ,Post Medieval/Modern,Engine House,http://cadwpublic-api.azurewebsites.net/reports/sam/FullReport?lang=en&id=299,"-3.07505318802811","51.7265958629117"
"193",MM218,Marine Colliery Pumping Engine,Post Medieval/Modern,Colliery,http://cadwpublic-api.azurewebsites.net/reports/sam/FullReport?lang=en&id=300,"-3.17591712864985","51.7315242922095"
"194",MM203     ,Redbrook Incline Overbridge                                                                                                                           ,Post Medieval/Modern,Bridge,http://cadwpublic-api.azurewebsites.net/reports/sam/FullReport?lang=en&id=301,"-2.673351717316","51.7892312731818"
"195",MM204     ,"Tramroad Bridge, Bailey's Tramroad, Govilon                                                                                                           ",Post Medieval/Modern,Bridge,http://cadwpublic-api.azurewebsites.net/reports/sam/FullReport?lang=en&id=302,"-3.07539131048645","51.8138277766797"
"196",MM205     ,Moated Site E of Grangefield Farm                                                                                                                     ,Medieval,Moated Site,http://cadwpublic-api.azurewebsites.net/reports/sam/FullReport?lang=en&id=303,"-2.88156354792304","51.560085897048"
"197",MM194,Medieval House Sites W of Trellech Church,Medieval,Shrunken Medieval Village,http://cadwpublic-api.azurewebsites.net/reports/sam/FullReport?lang=en&id=304,"-2.72608379253348","51.7460823313145"
"198",MM195     ,"Little Hadnock Roman Villa, Dixton Newtown                                                                                                            ",Roman,Villa,http://cadwpublic-api.azurewebsites.net/reports/sam/FullReport?lang=en&id=305,"-2.67578519855743","51.8338851700264"
"199",MM196     ,"Cairn Cemetery on Mynydd Bach, Bedwas                                                                                                                 ",Prehistoric,Round Cairn,http://cadwpublic-api.azurewebsites.net/reports/sam/FullReport?lang=en&id=306,"-3.20253221072745","51.6205786992958"
"200",MM197,Old Furnace Blast Furnace,Post Medieval/Modern,Blast Furnace,http://cadwpublic-api.azurewebsites.net/reports/sam/FullReport?lang=en&id=307,"-2.70505420369797","51.6992651065396"
"201",DE186     ,"St George's Well, Abergele                                                                                                                            ",Early Medieval,Holy Well,http://cadwpublic-api.azurewebsites.net/reports/sam/FullReport?lang=en&id=308,"-3.53626287306947","53.2680600368528"
"202",DE158,Wrexham Churchyard Ornamental Wrought Iron Gates and Screen,Post Medieval/Modern,Gate,http://cadwpublic-api.azurewebsites.net/reports/sam/FullReport?lang=en&id=309,"-2.99298323276815","53.0446470166698"
"203",DE162     ,Derwen Cross,Medieval,Cross,http://cadwpublic-api.azurewebsites.net/reports/sam/FullReport?lang=en&id=310,"-3.38831308739077","53.0456107154558"
"204",DE165     ,Wat's Dyke : Section South of Ruthin Road                                                                                                             ,Early Medieval,Linear Earthwork,http://cadwpublic-api.azurewebsites.net/reports/sam/FullReport?lang=en&id=311,"-3.00485829105897","53.0425314653711"
"205",GM445,"Remains of Brunel Dock, Briton Ferry",Post Medieval/Modern,Dockyard,http://cadwpublic-api.azurewebsites.net/reports/sam/FullReport?lang=en&id=312,"-3.82819165209056","51.6268094662265"
"206",GM446     ,Site of Medieval Mill & Mill Leat Cliffwood                                                                                                           ,Medieval,Mill,http://cadwpublic-api.azurewebsites.net/reports/sam/FullReport?lang=en&id=313,"-3.31150561482357","51.3941404246934"
"207",GM447     ,Glyncorrwg Mineral Railway (Parsons Folly) Section on Cefn Morfudd                                                                                    ,Post Medieval/Modern,Railway,http://cadwpublic-api.azurewebsites.net/reports/sam/FullReport?lang=en&id=314,"-3.75117735954385","51.6688090535441"
"208",GM406     ,Tarren Deusant Sculptured Rock & Spring                                                                                                               ,Unknown,Decorated stone,http://cadwpublic-api.azurewebsites.net/reports/sam/FullReport?lang=en&id=315,"-3.36938897457855","51.5758059016029"
"209",GM411     ,"Gelli-Isaf Tramroad Bridge, Abernant Tramroad                                                                                                         ",Post Medieval/Modern,Bridge,http://cadwpublic-api.azurewebsites.net/reports/sam/FullReport?lang=en&id=316,"-3.463749084637","51.7287648445466"
"210",GM424     ,Pont y Cafnau Tramroad Bridge                                                                                                                         ,Post Medieval/Modern,Bridge,http://cadwpublic-api.azurewebsites.net/reports/sam/FullReport?lang=en&id=317,"-3.39562462166531","51.7546417396644"
"211",GM358     ,Plas Baglan                                                                                                                                           ,Medieval,Castle,http://cadwpublic-api.azurewebsites.net/reports/sam/FullReport?lang=en&id=318,"-3.79787625797665","51.6157119337604"
"212",GM359     ,Merthyr Tramroad: Pont y Gwaith section and associated bridges                                                                                        ,Post Medieval/Modern,Tramroad,http://cadwpublic-api.azurewebsites.net/reports/sam/FullReport?lang=en&id=319,"-3.32963664432691","51.6707544641375"
"213",GM367     ,Roman Marching Camp South West of Melin Court Brook                                                                                                   ,Roman,Marching Camp,http://cadwpublic-api.azurewebsites.net/reports/sam/FullReport?lang=en&id=320,"-3.68412253406861","51.6870625812068"
"214",GM204,St-y-Nyll Round Barrow,Prehistoric,Round Barrow,http://cadwpublic-api.azurewebsites.net/reports/sam/FullReport?lang=en&id=321,"-3.29674606440822","51.4964156796074"
"215",GM217,Stormy Castle,Medieval,Motte,http://cadwpublic-api.azurewebsites.net/reports/sam/FullReport?lang=en&id=322,"-3.66477606937081","51.5206161679543"
"216",FL163     ,"Enclosure, Field System & Hollow-ways North of Pant                                                                                                   ",Medieval,Enclosure,http://cadwpublic-api.azurewebsites.net/reports/sam/FullReport?lang=en&id=323,"-3.2871814984269","53.2607450883574"
"217",FL165     ,Taylor's Pottery                                                                                                                                      ,Post Medieval/Modern,Pottery Kiln,http://cadwpublic-api.azurewebsites.net/reports/sam/FullReport?lang=en&id=324,"-3.09523711701313","53.1800860809874"
"218",FL166     ,"Pinfold Lane Pottery, Site of                                                                                                                         ",Post Medieval/Modern,Pottery Kiln,http://cadwpublic-api.azurewebsites.net/reports/sam/FullReport?lang=en&id=325,"-3.08603573868984","53.1818915500721"
"219",FL115     ,Trelawnyd Churchyard Cross                                                                                                                            ,Medieval,Cross,http://cadwpublic-api.azurewebsites.net/reports/sam/FullReport?lang=en&id=326,"-3.36848340958517","53.3056854676676"
"220",FL074     ,Round Barrow 450m South West of Glol Farm                                                                                                             ,Prehistoric,Round Barrow,http://cadwpublic-api.azurewebsites.net/reports/sam/FullReport?lang=en&id=327,"-3.31979383232437","53.2935821384956"
"221",FL011,Moel y Gaer Camp,Prehistoric,Hillfort,http://cadwpublic-api.azurewebsites.net/reports/sam/FullReport?lang=en&id=328,"-3.18267876210246","53.2125190951131"
"222",CM005     ,Dolau-Hirion Bridge                                                                                                                                   ,Post Medieval/Modern,Bridge,http://cadwpublic-api.azurewebsites.net/reports/sam/FullReport?lang=en&id=329,"-3.80508996884697","52.0095248731936"
"223",CM006     ,Spudder's Bridge                                                                                                                                      ,Medieval,Bridge,http://cadwpublic-api.azurewebsites.net/reports/sam/FullReport?lang=en&id=330,"-4.26922928505963","51.7297768382235"
"224",CM008,Carmarthen Castle,Medieval,Castle,http://cadwpublic-api.azurewebsites.net/reports/sam/FullReport?lang=en&id=331,"-4.30589786582019","51.8557206336649"
"225",CM009,The Bulwarks (Civil War),Post Medieval/Modern,Earthwork (unclassified),http://cadwpublic-api.azurewebsites.net/reports/sam/FullReport?lang=en&id=332,"-4.31223998550345","51.855141795574"
"226",PE328     ,Round Barrow N of Rosemary Lane                                                                                                                       ,Prehistoric,Round Barrow,http://cadwpublic-api.azurewebsites.net/reports/sam/FullReport?lang=en&id=333,"-4.83420034811096","51.7166960976453"
"227",PE292     ,Round Barrow on W Slope of Freni Fawr                                                                                                                 ,Prehistoric,Round Barrow,http://cadwpublic-api.azurewebsites.net/reports/sam/FullReport?lang=en&id=334,"-4.6235112953809","51.9857840125979"
"228",PE285     ,Pencraig-Fawr Camp                                                                                                                                    ,Prehistoric,Enclosure,http://cadwpublic-api.azurewebsites.net/reports/sam/FullReport?lang=en&id=335,"-4.73696221543559","51.9036932344084"
"229",PE252,Hazel Grove Camp (South),Prehistoric,Enclosure,http://cadwpublic-api.azurewebsites.net/reports/sam/FullReport?lang=en&id=336,"-4.95823852271968","51.8725637138922"
"230",PE253     ,Sealyham Rocks Camp                                                                                                                                   ,Prehistoric,Rath,http://cadwpublic-api.azurewebsites.net/reports/sam/FullReport?lang=en&id=337,"-4.95433555660042","51.9162766415214"
"231",PE262     ,West Pennar Camp                                                                                                                                      ,Prehistoric,Enclosure,http://cadwpublic-api.azurewebsites.net/reports/sam/FullReport?lang=en&id=338,"-4.9908206028268","51.6879606259073"
"232",PE241     ,New Moat Castle Mound                                                                                                                                 ,Medieval,Motte and Bailey,http://cadwpublic-api.azurewebsites.net/reports/sam/FullReport?lang=en&id=339,"-4.81587144125495","51.8930034269838"
"233",PE244     ,Scollock Rath                                                                                                                                         ,Prehistoric,Rath,http://cadwpublic-api.azurewebsites.net/reports/sam/FullReport?lang=en&id=340,"-4.87971411370289","51.881681166572"
"234",PE245     ,Kings Mill Camp                                                                                                                                       ,Prehistoric,Promontory Fort - inland,http://cadwpublic-api.azurewebsites.net/reports/sam/FullReport?lang=en&id=341,"-5.00206270912212","51.6496893780645"
"235",PE218     ,Crowhill Rath                                                                                                                                         ,Prehistoric,Promontory Fort - inland,http://cadwpublic-api.azurewebsites.net/reports/sam/FullReport?lang=en&id=342,"-4.97525454915149","51.8172426992419"
"236",PE203     ,Maen Colman                                                                                                                                           ,Early Medieval,Cross-marked stone,http://cadwpublic-api.azurewebsites.net/reports/sam/FullReport?lang=en&id=343,"-4.60065454931484","52.0138256430451"
"237",PE195     ,Great Castle Head Rath                                                                                                                                ,Prehistoric,Promontory Fort - coastal,http://cadwpublic-api.azurewebsites.net/reports/sam/FullReport?lang=en&id=344,"-5.18662109362801","51.7065757827767"
"238",PE196     ,Castle Mound                                                                                                                                          ,Medieval,Motte,http://cadwpublic-api.azurewebsites.net/reports/sam/FullReport?lang=en&id=345,"-5.13619171263163","51.725399687515"
"239",PE197     ,Crugiau Cemmaes Round Barrows                                                                                                                         ,Prehistoric,Round Barrow,http://cadwpublic-api.azurewebsites.net/reports/sam/FullReport?lang=en&id=346,"-4.73472142542672","52.0412541609287"
"240",PE186     ,Priory Rath                                                                                                                                           ,Prehistoric,Rath,http://cadwpublic-api.azurewebsites.net/reports/sam/FullReport?lang=en&id=347,"-5.03443415324673","51.7233331337042"
"241",PE189     ,Rath S of St James Church                                                                                                                             ,Prehistoric,Rath,http://cadwpublic-api.azurewebsites.net/reports/sam/FullReport?lang=en&id=348,"-5.08369137925371","51.7578777788865"
"242",PE190     ,Syke Rath                                                                                                                                             ,Prehistoric,Promontory Fort - inland,http://cadwpublic-api.azurewebsites.net/reports/sam/FullReport?lang=en&id=349,"-5.08409222965054","51.7508779068034"
"243",PE090,Rath 150m SE of Pelcomb Farm,Prehistoric,Rath,http://cadwpublic-api.azurewebsites.net/reports/sam/FullReport?lang=en&id=350,"-4.99229345356739","51.816469635701"
"244",PE104,Camp 370m NE of Stoneyford,Prehistoric,Enclosure,http://cadwpublic-api.azurewebsites.net/reports/sam/FullReport?lang=en&id=351,"-4.80066065937508","51.8313132326631"
"245",PE105,Camp 200m NE of Stoneyford,Prehistoric,Promontory Fort - coastal,http://cadwpublic-api.azurewebsites.net/reports/sam/FullReport?lang=en&id=352,"-4.80178321184815","51.8297385841241"
"246",PE107     ,Drim Camp                                                                                                                                             ,Early Medieval,Ringwork,http://cadwpublic-api.azurewebsites.net/reports/sam/FullReport?lang=en&id=353,"-4.81150582840033","51.8414706702304"
"247",PE067     ,Angle Dovecot                                                                                                                                         ,Medieval,dovecote,http://cadwpublic-api.azurewebsites.net/reports/sam/FullReport?lang=en&id=354,"-5.08852450993353","51.6857935115743"
"248",PE035     ,King's Quoit Burial Chamber                                                                                                                           ,Prehistoric,Chambered Tomb,http://cadwpublic-api.azurewebsites.net/reports/sam/FullReport?lang=en&id=355,"-4.80606301316072","51.6408204904529"
"249",MG209     ,Yr Allor Cairn                                                                                                                                        ,Prehistoric,Ring Cairn,http://cadwpublic-api.azurewebsites.net/reports/sam/FullReport?lang=en&id=356,"-3.62745004715656","52.5902597946665"
"250",MG161,Roman Earthwork NE of Caersws (revealed by aerial photography),Roman,Earthwork (unclassified),http://cadwpublic-api.azurewebsites.net/reports/sam/FullReport?lang=en&id=357,"-3.41394287513054","52.5222582090094"
"251",MG136     ,Sibwll Wood Camp                                                                                                                                      ,Prehistoric,Enclosure,http://cadwpublic-api.azurewebsites.net/reports/sam/FullReport?lang=en&id=358,"-3.20918812936619","52.4975786677465"
"252",MG137     ,Camp S of Old Hall Sarn                                                                                                                               ,Medieval,Ringwork,http://cadwpublic-api.azurewebsites.net/reports/sam/FullReport?lang=en&id=359,"-3.1701271587665","52.499523619548"
"253",MG138     ,Offa's Dyke: Section W of Court House Farm                                                                                                            ,Early Medieval,Linear Earthwork,http://cadwpublic-api.azurewebsites.net/reports/sam/FullReport?lang=en&id=360,"-3.11875238443925","52.6167753153613"
"254",MG100     ,Bwlch Aeddan Dyke                                                                                                                                     ,Medieval,Linear Earthwork,http://cadwpublic-api.azurewebsites.net/reports/sam/FullReport?lang=en&id=361,"-3.2281003167789","52.6865071314601"
"255",MM128     ,Bishton Castle                                                                                                                                        ,Medieval,Motte,http://cadwpublic-api.azurewebsites.net/reports/sam/FullReport?lang=en&id=362,"-2.87835978921873","51.5881435631163"
"256",MM131     ,Wentloog Castle                                                                                                                                       ,Medieval,Motte,http://cadwpublic-api.azurewebsites.net/reports/sam/FullReport?lang=en&id=363,"-3.08097763272982","51.5451554211516"
"257",RD057     ,Mound and Bailey Castle 495m NW of Ditch Hill Bridge                                                                                                  ,Medieval,Motte,http://cadwpublic-api.azurewebsites.net/reports/sam/FullReport?lang=en&id=364,"-3.06218307597901","52.2434160745099"
"258",MM109     ,Llangibby Castle (Castell Tregrug)                                                                                                                    ,Medieval,Castle,http://cadwpublic-api.azurewebsites.net/reports/sam/FullReport?lang=en&id=365,"-2.92115409275209","51.6718278662832"
"259",MM085     ,Newcastle Castle                                                                                                                                      ,Medieval,Motte and Bailey,http://cadwpublic-api.azurewebsites.net/reports/sam/FullReport?lang=en&id=366,"-2.80385362425492","51.8512819938547"
"260",MM060     ,Coed-Cwnwr Moated Site                                                                                                                                ,Medieval,Moated Site,http://cadwpublic-api.azurewebsites.net/reports/sam/FullReport?lang=en&id=368,"-2.85118105660308","51.690517543293"
"261",MM064     ,Pen-Twyn Earthwork                                                                                                                                    ,Prehistoric,Hillfort,http://cadwpublic-api.azurewebsites.net/reports/sam/FullReport?lang=en&id=369,"-2.98791928303894","51.9016038383331"
"262",MM063     ,"The Moat Mound and Bailey Castle, Tre Fedw                                                                                                            ",Medieval,Motte and Bailey,http://cadwpublic-api.azurewebsites.net/reports/sam/FullReport?lang=en&id=370,"-2.97434311933985","51.890497481894"
"263",MM032     ,Druidstone Standing Stone                                                                                                                             ,Prehistoric,Standing Stone,http://cadwpublic-api.azurewebsites.net/reports/sam/FullReport?lang=en&id=371,"-3.09576337157946","51.5446419520211"
"264",MM017,"Harold's Stones, Standing Stones",Prehistoric,Stone Alignment,http://cadwpublic-api.azurewebsites.net/reports/sam/FullReport?lang=en&id=372,"-2.72660659118821","51.7427522658985"
"265",MM019     ,Portskewett Hill Roman Site                                                                                                                           ,Roman,Villa,http://cadwpublic-api.azurewebsites.net/reports/sam/FullReport?lang=en&id=373,"-2.72634869370509","51.594578130337"
"266",MM021     ,St Julian's Wood Camp                                                                                                                                 ,Prehistoric,Hillfort,http://cadwpublic-api.azurewebsites.net/reports/sam/FullReport?lang=en&id=374,"-2.95410067748612","51.5969208778059"
"267",DE149     ,Maesmor Hall Castle Mound                                                                                                                             ,Medieval,Motte,http://cadwpublic-api.azurewebsites.net/reports/sam/FullReport?lang=en&id=375,"-3.47196685448278","52.9895534565767"
"268",DE151     ,Wat's Dyke: Section W of Ty-Gwyn                                                                                                                      ,Early Medieval,Linear Earthwork,http://cadwpublic-api.azurewebsites.net/reports/sam/FullReport?lang=en&id=376,"-2.99665223148311","53.0687350253827"
"269",DE154     ,Wat's Dyke: Section extending from Black Brook Bridge to Pentre-Clawdd                                                                                ,Early Medieval,Linear Earthwork,http://cadwpublic-api.azurewebsites.net/reports/sam/FullReport?lang=en&id=377,"-3.01789666066511","52.9984297292413"
"270",DE134     ,Offa's Dyke: Chirk Castle Section extending NE from Castle Mill                                                                                       ,Early Medieval,Linear Earthwork,http://cadwpublic-api.azurewebsites.net/reports/sam/FullReport?lang=en&id=378,"-3.09332541236682","52.9340849800082"
"271",DE121     ,Llwyn Bryn-Dinas Camp                                                                                                                                 ,Prehistoric,Hillfort,http://cadwpublic-api.azurewebsites.net/reports/sam/FullReport?lang=en&id=379,"-3.22936933101907","52.8135507302478"
"272",DE093     ,Maen Sertan Boundary Stones                                                                                                                           ,Medieval,Boundary Stone,http://cadwpublic-api.azurewebsites.net/reports/sam/FullReport?lang=en&id=380,"-3.7321719843303","53.0833017294534"
"273",DE070     ,Cefn y Gader Round Barrows                                                                                                                            ,Prehistoric,Round Barrow,http://cadwpublic-api.azurewebsites.net/reports/sam/FullReport?lang=en&id=381,"-3.12686657004107","53.0348981961911"
"274",DE073     ,Craig Adwywynt Camp                                                                                                                                   ,Prehistoric,Hillfort,http://cadwpublic-api.azurewebsites.net/reports/sam/FullReport?lang=en&id=382,"-3.31292097697412","53.0794261692423"
"275",DE045     ,Pen-y-Gaer Camp                                                                                                                                       ,Prehistoric,Hillfort,http://cadwpublic-api.azurewebsites.net/reports/sam/FullReport?lang=en&id=383,"-3.3363625848531","53.0831886623299"
"276",DE051     ,Plas-Meifod Round Barrow                                                                                                                              ,Prehistoric,Round Barrow,http://cadwpublic-api.azurewebsites.net/reports/sam/FullReport?lang=en&id=384,"-3.4573684295538","53.2019059905425"
"277",DE054     ,New Foxhall House                                                                                                                                     ,Post Medieval/Modern,House (domestic),http://cadwpublic-api.azurewebsites.net/reports/sam/FullReport?lang=en&id=385,"-3.45370603515078","53.195808303045"
"278",DE009     ,Moel Fenlli Camp                                                                                                                                      ,Prehistoric,Hillfort,http://cadwpublic-api.azurewebsites.net/reports/sam/FullReport?lang=en&id=386,"-3.25245846767606","53.1313652982755"
"279",GM452     ,Cross Ridge Dyke & Earthwork on Cefn Eglwysilan                                                                                                       ,Unknown,Cross Ridge Dyke,http://cadwpublic-api.azurewebsites.net/reports/sam/FullReport?lang=en&id=387,"-3.30113112032204","51.6038505320753"
"280",GM404     ,Rhos-Gwawr cairn cemetery                                                                                                                             ,Prehistoric,Round Cairn,http://cadwpublic-api.azurewebsites.net/reports/sam/FullReport?lang=en&id=388,"-3.45815995476065","51.6969681672093"
"281",GM416     ,Remains of Blast Furnace at Melin Court                                                                                                               ,Post Medieval/Modern,Blast Furnace,http://cadwpublic-api.azurewebsites.net/reports/sam/FullReport?lang=en&id=389,"-3.70226575951886","51.7027273336515"
"282",GM418     ,Maesteg blast furnaces                                                                                                                                ,Post Medieval/Modern,Blast Furnace,http://cadwpublic-api.azurewebsites.net/reports/sam/FullReport?lang=en&id=390,"-3.66430526419601","51.6113663279031"
"283",GM373     ,"Ring Cairn 350m W of Penrhiw Caradoc, Llanwonno                                                                                                       ",Prehistoric,Round Cairn,http://cadwpublic-api.azurewebsites.net/reports/sam/FullReport?lang=en&id=391,"-3.38632711676179","51.6723205127701"
"284",GM291     ,Llandarcy Round Cairn                                                                                                                                 ,Prehistoric,Round Cairn,http://cadwpublic-api.azurewebsites.net/reports/sam/FullReport?lang=en&id=392,"-3.85374193827564","51.6426213096946"
"285",GM275     ,Carn Cornel Round Cairn                                                                                                                               ,Prehistoric,Round Cairn,http://cadwpublic-api.azurewebsites.net/reports/sam/FullReport?lang=en&id=393,"-3.71519686545747","51.7428156166024"
"286",GM277     ,Blaen-Cwmbach Earthwork                                                                                                                               ,Prehistoric,Enclosure,http://cadwpublic-api.azurewebsites.net/reports/sam/FullReport?lang=en&id=394,"-3.74634707809634","51.6750183787679"
"287",GM263,Craig Ty-Isaf Camp,Prehistoric,Hillfort,http://cadwpublic-api.azurewebsites.net/reports/sam/FullReport?lang=en&id=395,"-3.79798018346327","51.6254042950638"
"288",GM264     ,Cefn Morfydd Dyke & Earthwork                                                                                                                         ,Early Medieval,Linear Earthwork,http://cadwpublic-api.azurewebsites.net/reports/sam/FullReport?lang=en&id=396,"-3.75483611595622","51.6683896585087"
"289",GM265,Remains of Iron Furnace Near Angleton,Post Medieval/Modern,Blast Furnace,http://cadwpublic-api.azurewebsites.net/reports/sam/FullReport?lang=en&id=397,"-3.58086750776073","51.5261995349119"
"290",GM243     ,Carn y Hyrddod & Neighbouring Cairn                                                                                                                   ,Prehistoric,Round Cairn,http://cadwpublic-api.azurewebsites.net/reports/sam/FullReport?lang=en&id=398,"-3.56354573258508","51.632633337393"
"291",GM246     ,Bwlch yr Avan Dyke                                                                                                                                    ,Prehistoric,Dyke,http://cadwpublic-api.azurewebsites.net/reports/sam/FullReport?lang=en&id=399,"-3.56179086577458","51.6444191943037"
"292",GM248     ,Chapel Hill Camp                                                                                                                                      ,Prehistoric,Hillfort,http://cadwpublic-api.azurewebsites.net/reports/sam/FullReport?lang=en&id=400,"-3.60192617362554","51.4905464316485"
"293",GM214     ,Cross in Tythegston Churchyard                                                                                                                        ,Medieval,Cross,http://cadwpublic-api.azurewebsites.net/reports/sam/FullReport?lang=en&id=401,"-3.6471453578793","51.4966907622802"
"294",GM169,Pre-Norman Stones in Churchyard,Early Medieval,Cross base,http://cadwpublic-api.azurewebsites.net/reports/sam/FullReport?lang=en&id=402,"-3.61040959765348","51.4856926267014"
"295",GM174     ,St Bride's Major Churchyard Cross                                                                                                                     ,Medieval,Cross,http://cadwpublic-api.azurewebsites.net/reports/sam/FullReport?lang=en&id=403,"-3.5930523711024","51.4632638658287"
"296",GM180     ,Llwynda-Ddu Camp                                                                                                                                      ,Prehistoric,Hillfort,http://cadwpublic-api.azurewebsites.net/reports/sam/FullReport?lang=en&id=404,"-3.28629849385999","51.520939072454"
"297",GM103,Hutchwns round barrow,Prehistoric,Round Barrow,http://cadwpublic-api.azurewebsites.net/reports/sam/FullReport?lang=en&id=405,"-3.7098235599821","51.484909643018"
"298",GM058     ,Roman Camp                                                                                                                                            ,Prehistoric,Enclosure,http://cadwpublic-api.azurewebsites.net/reports/sam/FullReport?lang=en&id=406,"-3.68540797708877","51.5790251472351"
"299",GM068,Coity Burial Chamber,Prehistoric,Chambered Tomb,http://cadwpublic-api.azurewebsites.net/reports/sam/FullReport?lang=en&id=407,"-3.54818351014364","51.5261570447743"
"300",GM079,Y Gaer,Prehistoric,Ringwork,http://cadwpublic-api.azurewebsites.net/reports/sam/FullReport?lang=en&id=408,"-3.34969272471046","51.463838708297"
"301",GM081     ,Gadlys                                                                                                                                                ,Medieval,Moated Site,http://cadwpublic-api.azurewebsites.net/reports/sam/FullReport?lang=en&id=409,"-3.47309380249802","51.5198706219595"
"302",GM006,Neath Abbey,Medieval,Abbey,http://cadwpublic-api.azurewebsites.net/reports/sam/FullReport?lang=en&id=410,"-3.82612060969056","51.6608750193596"
"303",FL105     ,Pant Ifan Round Barrow                                                                                                                                ,Prehistoric,Round Barrow,http://cadwpublic-api.azurewebsites.net/reports/sam/FullReport?lang=en&id=411,"-3.35199017866772","53.2556939124298"
"304",FL090     ,Wat's Dyke: Section NW of Clawdd Offa                                                                                                                 ,Early Medieval,Linear Earthwork,http://cadwpublic-api.azurewebsites.net/reports/sam/FullReport?lang=en&id=412,"-3.04979952168467","53.1383014716235"
"305",FL094,Prestatyn Roman Site,Prehistoric,Settlement,http://cadwpublic-api.azurewebsites.net/reports/sam/FullReport?lang=en&id=413,"-3.40954075022072","53.3243926711728"
"306",FL055     ,Round Barrow 450m SSW of Llynfanod                                                                                                                    ,Prehistoric,Round Barrow,http://cadwpublic-api.azurewebsites.net/reports/sam/FullReport?lang=en&id=414,"-3.29062722665377","53.2446757003498"
"307",FL039     ,Round Barrow 153m NW of Plas yn Rhos                                                                                                                  ,Prehistoric,Round Barrow,http://cadwpublic-api.azurewebsites.net/reports/sam/FullReport?lang=en&id=415,"-3.3264725655306","53.2590387043622"
"308",FL005     ,Maen Achwyfan Cross,Early Medieval,Cross,http://cadwpublic-api.azurewebsites.net/reports/sam/FullReport?lang=en&id=416,"-3.30853773013626","53.2986718982395"
"309",CM252,Dolgarn Moated Site,Medieval,Moated Site,http://cadwpublic-api.azurewebsites.net/reports/sam/FullReport?lang=en&id=417,"-4.51774260278374","51.8106921218038"
"310",CM255     ,Tair Carn Uchaf Cairns                                                                                                                                ,Prehistoric,Round Cairn,http://cadwpublic-api.azurewebsites.net/reports/sam/FullReport?lang=en&id=418,"-3.8976294962649","51.8401885860994"
"311",CM258     ,Carnau'r Gareg Las                                                                                                                                    ,Prehistoric,Round Cairn,http://cadwpublic-api.azurewebsites.net/reports/sam/FullReport?lang=en&id=419,"-3.77711272410619","51.867900987245"
"312",CM229,Y Garn Ring Cairn,Prehistoric,Ring Cairn,http://cadwpublic-api.azurewebsites.net/reports/sam/FullReport?lang=en&id=420,"-4.0951452153306","51.9580450488911"
"313",CM232     ,Hillslope Enclosure at Laugharne Park Holiday Village                                                                                                 ,Prehistoric,Enclosure,http://cadwpublic-api.azurewebsites.net/reports/sam/FullReport?lang=en&id=421,"-4.45636370073787","51.773652768005"
"314",CM234,Carmarthen Roman Town (part of),Roman,Town,http://cadwpublic-api.azurewebsites.net/reports/sam/FullReport?lang=en&id=422,"-4.30254100638418","51.8595928763434"
"315",CM209     ,Kidwelly Medieval Town (Part of)                                                                                                                      ,Medieval,Town,http://cadwpublic-api.azurewebsites.net/reports/sam/FullReport?lang=en&id=423,"-4.30670588864467","51.7394675983997"
"316",CM195,Llys-Brychan Roman Site,Roman,Villa,http://cadwpublic-api.azurewebsites.net/reports/sam/FullReport?lang=en&id=424,"-3.88431690104875","51.9125530813226"
"317",CM172     ,Carn Pen-Rhiw-Ddu                                                                                                                                     ,Prehistoric,Round Cairn,http://cadwpublic-api.azurewebsites.net/reports/sam/FullReport?lang=en&id=425,"-3.84909070430343","51.8541627531423"
"318",CM159     ,Capel Nebo Standing Stone                                                                                                                             ,Prehistoric,Standing Stone,http://cadwpublic-api.azurewebsites.net/reports/sam/FullReport?lang=en&id=426,"-4.70692274358221","51.8960893385619"
"319",CM149     ,Maes y Castell                                                                                                                                        ,Prehistoric,Hillfort,http://cadwpublic-api.azurewebsites.net/reports/sam/FullReport?lang=en&id=427,"-3.99204915572344","51.9331010772133"
"320",CM151     ,Pen y Cnap Castle                                                                                                                                     ,Medieval,Motte,http://cadwpublic-api.azurewebsites.net/reports/sam/FullReport?lang=en&id=428,"-4.15637528879024","51.8712672665359"
"321",CM154     ,Beddau'r Derwyddon                                                                                                                                    ,Post Medieval/Modern,Pillow Mound,http://cadwpublic-api.azurewebsites.net/reports/sam/FullReport?lang=en&id=429,"-3.92636827952007","51.8458376472067"
"322",CM134     ,Two Round Barrows near Crossroads N of Eglwsfair-a-Churig Church                                                                                      ,Prehistoric,Round Barrow,http://cadwpublic-api.azurewebsites.net/reports/sam/FullReport?lang=en&id=430,"-4.61546233971679","51.9111131573148"
"323",CM114     ,Castell Du Castle Mound                                                                                                                               ,Medieval,Motte,http://cadwpublic-api.azurewebsites.net/reports/sam/FullReport?lang=en&id=431,"-4.27685368024714","51.9831675010248"
"324",CM097     ,Hendy Earthwork                                                                                                                                       ,Medieval,Enclosure,http://cadwpublic-api.azurewebsites.net/reports/sam/FullReport?lang=en&id=432,"-4.04920805184661","51.7107118884134"
"325",CM100     ,Portis-Parc Camp                                                                                                                                      ,Prehistoric,Enclosure,http://cadwpublic-api.azurewebsites.net/reports/sam/FullReport?lang=en&id=433,"-4.71532241886097","51.8750459530822"
"326",CM102,Castell Nonni,Medieval,Motte,http://cadwpublic-api.azurewebsites.net/reports/sam/FullReport?lang=en&id=434,"-4.19582253446288","52.0366741327252"
"327",CM075     ,Crug y Biswal Round Barrow                                                                                                                            ,Prehistoric,Round Barrow,http://cadwpublic-api.azurewebsites.net/reports/sam/FullReport?lang=en&id=435,"-4.16225834262565","52.027606873519"
"328",CM060     ,Group of Standing Stones NE of Llechdwnni                                                                                                             ,Prehistoric,Standing Stone,http://cadwpublic-api.azurewebsites.net/reports/sam/FullReport?lang=en&id=436,"-4.27373068390025","51.7677385796821"
"329",CM061,Mynydd Llangyndeyrn Burial Chamber,Prehistoric,Chambered Tomb,http://cadwpublic-api.azurewebsites.net/reports/sam/FullReport?lang=en&id=437,"-4.19772400891722","51.7977746409381"
"330",CM065,Earthworks SE of Clyn-Derwen,Prehistoric,Enclosure,http://cadwpublic-api.azurewebsites.net/reports/sam/FullReport?lang=en&id=438,"-4.72555857626493","51.8374583795835"
"331",CM047     ,Cerrig Llwydion Burial Chamber                                                                                                                        ,Prehistoric,Chambered Tomb,http://cadwpublic-api.azurewebsites.net/reports/sam/FullReport?lang=en&id=439,"-4.36849781179408","51.9678957676763"
"332",CM049     ,Carn Besi Burial Chamber                                                                                                                              ,Prehistoric,Chambered Tomb,http://cadwpublic-api.azurewebsites.net/reports/sam/FullReport?lang=en&id=440,"-4.68232813100536","51.9171011065983"
"333",CM050     ,Cairn Circle 585m NE of Meini Gwyr                                                                                                                    ,Prehistoric,Round Barrow,http://cadwpublic-api.azurewebsites.net/reports/sam/FullReport?lang=en&id=441,"-4.69729370543327","51.9108194410841"
"334",CM017     ,Cenarth Bridge                                                                                                                                        ,Post Medieval/Modern,Bridge,http://cadwpublic-api.azurewebsites.net/reports/sam/FullReport?lang=en&id=442,"-4.52538237433158","52.0455800498417"
"335",CM022     ,Domen Llawddog (Or Tomen Maesllan) Mound & Bailey Castle                                                                                              ,Medieval,Motte and Bailey,http://cadwpublic-api.azurewebsites.net/reports/sam/FullReport?lang=en&id=443,"-4.3912381405642","52.0004657399745"
"336",CM024,Castell-y-Gaer,Prehistoric,Enclosure,http://cadwpublic-api.azurewebsites.net/reports/sam/FullReport?lang=en&id=444,"-4.40556193238763","51.8497795207165"
"337",CM030,Castell Dryslwyn,Medieval,Castle,http://cadwpublic-api.azurewebsites.net/reports/sam/FullReport?lang=en&id=445,"-4.10086634100628","51.8630962069084"
"338",PE446,Fort Popton (Curtain Walls and Gun Emplacements only),Post Medieval/Modern,Fort,http://cadwpublic-api.azurewebsites.net/reports/sam/FullReport?lang=en&id=446,"-5.04948974897706","51.693083628777"
"339",PE429     ,"Cottage, Mill and Lime Kiln at Caerbwdy                                                                                                               ",Post Medieval/Modern,Mill,http://cadwpublic-api.azurewebsites.net/reports/sam/FullReport?lang=en&id=447,"-5.24520354151872","51.8745308150832"
"340",PE413,Iron Age Hillslope Enclosure in Canaston Wood,Prehistoric,Enclosure,http://cadwpublic-api.azurewebsites.net/reports/sam/FullReport?lang=en&id=448,"-4.77303092919148","51.7927563193941"
"341",PE383     ,Castle Malgwyn Bridge                                                                                                                                 ,Post Medieval/Modern,Bridge,http://cadwpublic-api.azurewebsites.net/reports/sam/FullReport?lang=en&id=449,"-4.60110553620059","52.0615301599108"
"342",PE384     ,Cilgerran Castle Additional Area                                                                                                                      ,Medieval,Castle,http://cadwpublic-api.azurewebsites.net/reports/sam/FullReport?lang=en&id=450,"-4.6346543677581","52.0566109992849"
"343",PE400,Enclosure & Earthworks at Lewiston Hall,Prehistoric,Promontory Fort- coastal,http://cadwpublic-api.azurewebsites.net/reports/sam/FullReport?lang=en&id=452,"-5.00898024462866","51.6880859986398"
"344",PE401,Medieval Building at Kingston Farm,Medieval,Building (Unclassified),http://cadwpublic-api.azurewebsites.net/reports/sam/FullReport?lang=en&id=453,"-4.90068377986865","51.658228235939"
"345",PE402     ,Deserted Medieval Site at New Inn                                                                                                                     ,Medieval,Deserted Rural Settlement,http://cadwpublic-api.azurewebsites.net/reports/sam/FullReport?lang=en&id=454,"-4.82770222324166","51.9378450699767"
"346",PE403,"The Old Palace, Lydstep",Medieval,Palace,http://cadwpublic-api.azurewebsites.net/reports/sam/FullReport?lang=en&id=455,"-4.76777269003772","51.651520707376"
"347",PE404,The Old Castle,Medieval,Ringwork,http://cadwpublic-api.azurewebsites.net/reports/sam/FullReport?lang=en&id=456,"-4.83095257845853","52.0200258306485"
"348",PE371     ,Parc-Lan Standing Stones                                                                                                                              ,Prehistoric,Standing Stone,http://cadwpublic-api.azurewebsites.net/reports/sam/FullReport?lang=en&id=457,"-4.78268935631642","51.9871473175132"
"349",PE375     ,Carn Alw Hillfort                                                                                                                                     ,Prehistoric,Hillfort,http://cadwpublic-api.azurewebsites.net/reports/sam/FullReport?lang=en&id=458,"-4.71127597881333","51.9706881114217"
"350",PE394     ,Narberth Mountain Enclosure                                                                                                                           ,Prehistoric,Enclosure,http://cadwpublic-api.azurewebsites.net/reports/sam/FullReport?lang=en&id=459,"-4.73666405310179","51.7840847057118"
"351",PE339     ,Fort Scoveston                                                                                                                                        ,Post Medieval/Modern,Fort,http://cadwpublic-api.azurewebsites.net/reports/sam/FullReport?lang=en&id=460,"-4.97778400607677","51.7205715036493"
"352",PE310     ,Mynnydd Caregog Hut Circle                                                                                                                            ,Prehistoric,Unenclosed hut circle,http://cadwpublic-api.azurewebsites.net/reports/sam/FullReport?lang=en&id=461,"-4.85375293082191","51.992521167013"
"353",PE276     ,Mounds on the Island                                                                                                                                  ,Medieval,Mound,http://cadwpublic-api.azurewebsites.net/reports/sam/FullReport?lang=en&id=462,"-4.85317861404895","51.7898478813003"
"354",PE277     ,Picton Castle Mound                                                                                                                                   ,Medieval,Motte,http://cadwpublic-api.azurewebsites.net/reports/sam/FullReport?lang=en&id=463,"-4.87753625504543","51.7851057457077"
"355",PE264,West Popton Camp,Prehistoric,Promontory Fort - coastal,http://cadwpublic-api.azurewebsites.net/reports/sam/FullReport?lang=en&id=464,"-5.02949392017567","51.6937752179295"
"356",PE265,Black Point Rath,Prehistoric,Promontory Fort - coastal,http://cadwpublic-api.azurewebsites.net/reports/sam/FullReport?lang=en&id=465,"-5.1052768014876","51.7952322275977"
"357",PE269     ,Rhyd-Brown Camp                                                                                                                                       ,Prehistoric,Promontory Fort - inland,http://cadwpublic-api.azurewebsites.net/reports/sam/FullReport?lang=en&id=466,"-4.80940939893194","51.8659553195756"
"358",PE230     ,Pillar Cross in Churchyard                                                                                                                            ,Early Medieval,Cross,http://cadwpublic-api.azurewebsites.net/reports/sam/FullReport?lang=en&id=467,"-4.9254688227168","51.973121782377"
"359",PE231     ,Bucket Camp                                                                                                                                           ,Prehistoric,Enclosure,http://cadwpublic-api.azurewebsites.net/reports/sam/FullReport?lang=en&id=468,"-4.98404321037481","51.9400657576641"
"360",PE232     ,Castell Mael                                                                                                                                          ,Medieval,Ringwork,http://cadwpublic-api.azurewebsites.net/reports/sam/FullReport?lang=en&id=469,"-4.89625994626955","51.930638880806"
"361",PE187     ,Thornton Rath                                                                                                                                         ,Prehistoric,Promontory Fort - inland,http://cadwpublic-api.azurewebsites.net/reports/sam/FullReport?lang=en&id=470,"-5.03513391141068","51.7304572499363"
"362",PE157     ,Kingston Burial Chamber                                                                                                                               ,Prehistoric,Chambered Tomb,http://cadwpublic-api.azurewebsites.net/reports/sam/FullReport?lang=en&id=471,"-4.9066106055358","51.655746025003"
"363",PE158     ,Woodland Round Barrow                                                                                                                                 ,Prehistoric,Round Barrow,http://cadwpublic-api.azurewebsites.net/reports/sam/FullReport?lang=en&id=472,"-5.10385847892197","51.7630564414699"
"364",PE162     ,Llawhaden Hospital                                                                                                                                    ,Medieval,Hospital,http://cadwpublic-api.azurewebsites.net/reports/sam/FullReport?lang=en&id=473,"-4.80634274132152","51.820681271283"
"365",PE116     ,Waun Lwyd Standing Stones                                                                                                                             ,Prehistoric,Standing Stone,http://cadwpublic-api.azurewebsites.net/reports/sam/FullReport?lang=en&id=474,"-4.68201785566385","51.9492770826378"
"366",PE124     ,Waun Mawn Standing Stones                                                                                                                             ,Prehistoric,Standing Stone,http://cadwpublic-api.azurewebsites.net/reports/sam/FullReport?lang=en&id=475,"-4.79296562891267","51.9713182656433"
"367",PE137,Whitewell,Medieval,House (domestic),http://cadwpublic-api.azurewebsites.net/reports/sam/FullReport?lang=en&id=476,"-4.75586225486681","51.657798279921"
"368",PE061     ,Garn Turne Burial Chamber                                                                                                                             ,Prehistoric,Chambered Tomb,http://cadwpublic-api.azurewebsites.net/reports/sam/FullReport?lang=en&id=477,"-4.93878120687671","51.9071540592786"
"369",PE040,Narberth Castle,Medieval,Castle,http://cadwpublic-api.azurewebsites.net/reports/sam/FullReport?lang=en&id=478,"-4.74245148426495","51.796178258853"
"370",PE021     ,Bulliber Hill Camp                                                                                                                                    ,Prehistoric,Enclosure,http://cadwpublic-api.azurewebsites.net/reports/sam/FullReport?lang=en&id=479,"-5.03166259785534","51.6291880989724"
"371",PE022,Tump Round Barrow,Prehistoric,Round Barrow,http://cadwpublic-api.azurewebsites.net/reports/sam/FullReport?lang=en&id=480,"-5.04920563701892","51.8807615176344"
"372",PE023     ,Llawhaden Bridge                                                                                                                                      ,Medieval,Bridge,http://cadwpublic-api.azurewebsites.net/reports/sam/FullReport?lang=en&id=481,"-4.79506473262425","51.8206662525429"
"373",PE024,Llawhaden Castle,Medieval,Castle,http://cadwpublic-api.azurewebsites.net/reports/sam/FullReport?lang=en&id=482,"-4.79765034785331","51.8223834633265"
"374",MG225     ,"Montgomery Medieval Town, Kerry Gate Extra Mural Settlement                                                                                           ",Medieval,Extra-mural settlement,http://cadwpublic-api.azurewebsites.net/reports/sam/FullReport?lang=en&id=483,"-3.14918718301537","52.5578526310422"
